{
  "dubai, united arab emirates": {
    "lat": 25.074282,
    "lon": 55.188539,
    "display_name": "دبي, الإمارات العربية المتحدة"
  },
  "airport, savannah, united states": {
    "lat": 32.124238,
    "lon": -81.197706,
    "display_name": "Savannah/Hilton Head International Airport, Artley Road, Savannah, Chatham County, Georgia, 31408, United States"
  },
  "airport, boston, united states": {
    "lat": 42.374333,
    "lon": -71.030279,
    "display_name": "Airport, Transportation Way, The Flats, East Boston, Boston, Suffolk County, Massachusetts, 02128, United States"
  },
  "airport, kuwait city, kuwait": {
    "lat": 29.307466,
    "lon": 47.962808,
    "display_name": "طريق المطار, اليرموك - قطعة 3, اليرموك, مدينة الكويت, خيطان, محافظة العاصمة, 72504, الكويت"
  },
  "airport, ireland": {
    "lat": 53.426845,
    "lon": -6.243516,
    "display_name": "Bank of Ireland, Corballis Road South, Airport ED, Fingal, County Dublin, Leinster, K67 A0K7, Éire / Ireland"
  },
  "airport, vero beach, united states": {
    "lat": 27.657215,
    "lon": -80.41833,
    "display_name": "Vero Beach Municipal Airport, 3400, Cherokee Drive, Vero Beach, Indian River County, Florida, 32960, United States"
  },
  "dubai international airport, dubai, united arab emirates": {
    "lat": 25.251542,
    "lon": 55.366652,
    "display_name": "مطار دبي الدولي, شارع بيروت, محيصنة, دبي, الإمارات العربية المتحدة"
  },
  "baghdad, iraq": {
    "lat": 33.30617,
    "lon": 44.387221,
    "display_name": "بغداد, بلدية المنطقة الخضراء, محافظة بغداد, العراق"
  },
  "airport, lynden pindling, bahamas": {
    "lat": 25.049305,
    "lon": -77.4653,
    "display_name": "Bahamas Post Office, Lynden Pindling International Airport, New Providence, The Bahamas"
  },
  "plane": {
    "lat": 44.53127,
    "lon": 18.586291,
    "display_name": "Plane, Grad Tuzla, Tuzlanski kanton, Federacija Bosne i Hercegovine, 75212, Bosna i Hercegovina / Босна и Херцеговина"
  },
  "airport, united states": {
    "lat": 42.374333,
    "lon": -71.030279,
    "display_name": "Airport, Transportation Way, The Flats, East Boston, Boston, Suffolk County, Massachusetts, 02128, United States"
  },
  "bistro, frankfurt, germany": {
    "lat": 50.12138,
    "lon": 8.648312,
    "display_name": "Bistro Hong Kong, 26, Leipziger Straße, Einkaufsmeile Leipziger Straße, Bockenheim, Innenstadt 2, Frankfurt am Main, Hessen, 60487, Deutschland"
  },
  "al dhafra air base, abu dhabi, united arab emirates": {
    "lat": 24.238608,
    "lon": 54.552172,
    "display_name": "قاعدة الظفرة الجوية, شارع اللُّجَين, جرن يافور, جَرْن يَافُور, أبوظبي, أبو ظبي, الإمارات العربية المتحدة"
  },
  "detroit airport, detroit, united states": {
    "lat": 42.411244,
    "lon": -83.008531,
    "display_name": "Coleman A. Young Municipal Airport, East Outer Drive, Detroit, Wayne County, Michigan, 48213, United States"
  },
  "dubai airport, dubai, united arab emirates": {
    "lat": 25.251542,
    "lon": 55.366652,
    "display_name": "مطار دبي الدولي, شارع بيروت, محيصنة, دبي, الإمارات العربية المتحدة"
  },
  "florida airport, florida, united states": {
    "lat": 30.49375,
    "lon": -81.693038,
    "display_name": "Jacksonville International Airport, Cole Flyer Road, Jacksonville, Duval County, Florida, 32218, United States"
  },
  "erbil airport, erbil, iraq": {
    "lat": 36.240412,
    "lon": 43.946569,
    "display_name": "فڕۆکەخانەی نێودەوڵەتی هەولێر, شەقامی ڕەمزی نافع, شاری خەونەکان, ھەولێر, ناحیەی ناوەندی هەولێر, قەزای ناوەندی هەولێر, پارێزگای ھەولێر, هەرێمی کوردستان, 44001, العراق"
  },
  "otel, batman, turkey": {
    "lat": 37.880034,
    "lon": 41.124921,
    "display_name": "Grand White Otel, 7, Cumhuriyet Bulvarı, Eski Çarşı, Meydan Mahallesi, Batman Merkez, Batman, Güneydoğu Anadolu Bölgesi, 72050, Türkiye"
  }
}