{
  "dubai, united arab emirates": {
    "lat": 25.074282,
    "lon": 55.188539,
    "display_name": "دبي, الإمارات العربية المتحدة"
  },
  "airport, savannah, united states": {
    "lat": 32.124238,
    "lon": -81.197706,
    "display_name": "Savannah/Hilton Head International Airport, Artley Road, Savannah, Chatham County, Georgia, 31408, United States"
  },
  "airport, boston, united states": {
    "lat": 42.374333,
    "lon": -71.030279,
    "display_name": "Airport, Transportation Way, The Flats, East Boston, Boston, Suffolk County, Massachusetts, 02128, United States"
  },
  "airport, kuwait city, kuwait": {
    "lat": 29.307466,
    "lon": 47.962808,
    "display_name": "طريق المطار, اليرموك - قطعة 3, اليرموك, مدينة الكويت, خيطان, محافظة العاصمة, 72504, الكويت"
  },
  "airport, ireland": {
    "lat": 53.426845,
    "lon": -6.243516,
    "display_name": "Bank of Ireland, Corballis Road South, Airport ED, Fingal, County Dublin, Leinster, K67 A0K7, Éire / Ireland"
  },
  "airport, vero beach, united states": {
    "lat": 27.657215,
    "lon": -80.41833,
    "display_name": "Vero Beach Municipal Airport, 3400, Cherokee Drive, Vero Beach, Indian River County, Florida, 32960, United States"
  },
  "dubai international airport, dubai, united arab emirates": {
    "lat": 25.251542,
    "lon": 55.366652,
    "display_name": "مطار دبي الدولي, شارع بيروت, محيصنة, دبي, الإمارات العربية المتحدة"
  },
  "baghdad, iraq": {
    "lat": 33.30617,
    "lon": 44.387221,
    "display_name": "بغداد, بلدية المنطقة الخضراء, محافظة بغداد, العراق"
  },
  "airport, lynden pindling, bahamas": {
    "lat": 25.049305,
    "lon": -77.4653,
    "display_name": "Bahamas Post Office, Lynden Pindling International Airport, New Providence, The Bahamas"
  },
  "plane": {
    "lat": 44.53127,
    "lon": 18.586291,
    "display_name": "Plane, Grad Tuzla, Tuzlanski kanton, Federacija Bosne i Hercegovine, 75212, Bosna i Hercegovina / Босна и Херцеговина"
  },
  "airport, united states": {
    "lat": 42.374333,
    "lon": -71.030279,
    "display_name": "Airport, Transportation Way, The Flats, East Boston, Boston, Suffolk County, Massachusetts, 02128, United States"
  },
  "bistro, frankfurt, germany": {
    "lat": 50.12138,
    "lon": 8.648312,
    "display_name": "Bistro Hong Kong, 26, Leipziger Straße, Einkaufsmeile Leipziger Straße, Bockenheim, Innenstadt 2, Frankfurt am Main, Hessen, 60487, Deutschland"
  },
  "al dhafra air base, abu dhabi, united arab emirates": {
    "lat": 24.238608,
    "lon": 54.552172,
    "display_name": "قاعدة الظفرة الجوية, شارع اللُّجَين, جرن يافور, جَرْن يَافُور, أبوظبي, أبو ظبي, الإمارات العربية المتحدة"
  },
  "detroit airport, detroit, united states": {
    "lat": 42.411244,
    "lon": -83.008531,
    "display_name": "Coleman A. Young Municipal Airport, East Outer Drive, Detroit, Wayne County, Michigan, 48213, United States"
  },
  "dubai airport, dubai, united arab emirates": {
    "lat": 25.251542,
    "lon": 55.366652,
    "display_name": "مطار دبي الدولي, شارع بيروت, محيصنة, دبي, الإمارات العربية المتحدة"
  },
  "florida airport, florida, united states": {
    "lat": 30.49375,
    "lon": -81.693038,
    "display_name": "Jacksonville International Airport, Cole Flyer Road, Jacksonville, Duval County, Florida, 32218, United States"
  },
  "erbil airport, erbil, iraq": {
    "lat": 36.240412,
    "lon": 43.946569,
    "display_name": "فڕۆکەخانەی نێودەوڵەتی هەولێر, شەقامی ڕەمزی نافع, شاری خەونەکان, ھەولێر, ناحیەی ناوەندی هەولێر, قەزای ناوەندی هەولێر, پارێزگای ھەولێر, هەرێمی کوردستان, 44001, العراق"
  },
  "otel, batman, turkey": {
    "lat": 37.880034,
    "lon": 41.124921,
    "display_name": "Grand White Otel, 7, Cumhuriyet Bulvarı, Eski Çarşı, Meydan Mahallesi, Batman Merkez, Batman, Güneydoğu Anadolu Bölgesi, 72050, Türkiye"
  },
  "airport area, egypt": {
    "lat": 5.616461,
    "lon": -0.177099,
    "display_name": "Embassy of Egypt, Senchi Road, Airport Residential Area, Dzorwulu, Accra, Ayawaso West Municipal District, Greater Accra Region, Ghana"
  },
  "hotel near lax, los angeles, united states": {
    "lat": 33.929825,
    "lon": -118.351074,
    "display_name": "Comfort Inn Cockatoo Near LAX Airport, 11500, Acacia Avenue, Hawthorne, Los Angeles County, California, 90250, United States"
  },
  "batman, turkey": {
    "lat": 37.78741,
    "lon": 41.257392,
    "display_name": "Batman, Güneydoğu Anadolu Bölgesi, Türkiye"
  },
  "airport, iran": {
    "lat": 38.120572,
    "lon": 46.243011,
    "display_name": "فرودگاه, شهر تبریز, بخش مرکزی شهرستان تبریز, شهرستان تبریز, استان آذربایجان شرقی, ایران"
  },
  "montreal, canada": {
    "lat": 45.503182,
    "lon": -73.569806,
    "display_name": "Montréal, Agglomération de Montréal, Montréal (région administrative), Québec, Canada"
  },
  "hotel, spain": {
    "lat": 40.407197,
    "lon": -3.699996,
    "display_name": "Hotel, 11, Calle de Valencia, Lavapiés, Embajadores, Centro, Madrid, Comunidad de Madrid, 28012, España"
  },
  "sydney airport, sydney, australia": {
    "lat": -33.949894,
    "lon": 151.181968,
    "display_name": "Sydney (Kingsford Smith) Airport, Foreshore Road, Botany, Eastern Suburbs, Sydney, Bayside Council, New South Wales, 2019, Australia"
  },
  "zaventem airport, zaventem, belgium": {
    "lat": 50.898336,
    "lon": 4.483259,
    "display_name": "Brussels Airport, Luchthaven Brussel Nationaal, Zaventem, Halle-Vilvoorde, Vlaams-Brabant, Vlaanderen, 1930, België / Belgique / Belgien"
  },
  "baghdad international airport, baghdad, iraq": {
    "lat": 33.263646,
    "lon": 44.22362,
    "display_name": "مطار بغداد الدولي, 893-2, حي بدر, ناحية المامون, قضاء الکرخ, بغداد, محافظة بغداد, 10012, العراق"
  },
  "airport, pristina, kosovo": {
    "lat": 42.600387,
    "lon": 21.025763,
    "display_name": "Aeroporti, Rruga e Pejës, Sllatinë e Vogël, Komuna e Fushë Kosovës / Opština Kosovo Polje, Rajoni i Prishtinës / Prištinski okrug, 12050, Kosova / Kosovo"
  },
  "brussels, belgium": {
    "lat": 50.846737,
    "lon": 4.352493,
    "display_name": "Bruxelles - Brussel, Brussel-Hoofdstad - Bruxelles-Capitale, Région de Bruxelles-Capitale - Brussels Hoofdstedelijk Gewest, België / Belgique / Belgien"
  },
  "airport, baghdad, iraq": {
    "lat": 33.234216,
    "lon": 44.239916,
    "display_name": "قيادة القوة الجوية, طريق المطار للمرور السريع, محلة 887, العامرية, ناحية المنصور, قضاء الکرخ, بغداد, بلدية المنصور, محافظة بغداد, 10012, العراق"
  },
  "hotel, ho chi minh city, vietnam": {
    "lat": 8.680084,
    "lon": 106.601957,
    "display_name": "Horizon Côn Đảo Hotel, Khu 5, Lương Thế Trân, Khu 5, Côn Sơn, Đặc khu Côn Đảo, Thành phố Hồ Chí Minh, 79000, Việt Nam"
  },
  "tel aviv, israel": {
    "lat": 32.0853,
    "lon": 34.781806,
    "display_name": "תל־אביב–יפו, נפת תל אביב, מחוז תל אביב, ישראל"
  },
  "laguardia airport, new york, united states": {
    "lat": 40.775714,
    "lon": -73.873364,
    "display_name": "LaGuardia Airport, Ditmars Boulevard, Queens, Queens County, New York, 11371, United States"
  },
  "ben gurion, israel": {
    "lat": 32.09092,
    "lon": 34.823395,
    "display_name": "בן גוריון, זאב ז'בוטינסקי, תל גיבורים, בני ברק, נפת תל אביב, מחוז תל אביב, 5121501, ישראל"
  },
  "airport, erbil": {
    "lat": 36.240412,
    "lon": 43.946569,
    "display_name": "فڕۆکەخانەی نێودەوڵەتی هەولێر, شەقامی ڕەمزی نافع, شاری خەونەکان, دریم ستی, ھەولێر, ناحیەی ناوەندی هەولێر, قەزای ناوەندی هەولێر, پارێزگای ھەولێر, هەرێمی کوردستان, 44001, العراق"
  },
  "mumbai, india": {
    "lat": 19.054999,
    "lon": 72.869203,
    "display_name": "Mumbai, Mumbai Suburban District, Maharashtra, 400051, India"
  },
  "airport, kuwait": {
    "lat": 29.307466,
    "lon": 47.962808,
    "display_name": "طريق المطار, اليرموك - قطعة 3, اليرموك, مدينة الكويت, خيطان, محافظة العاصمة, 72504, الكويت"
  },
  "airport, erbil, iraq": {
    "lat": 36.240412,
    "lon": 43.946569,
    "display_name": "فڕۆکەخانەی نێودەوڵەتی هەولێر, شەقامی زاگرۆس, ڕەشکین, ناحیەی ناوەندی هەولێر, قەزای ناوەندی هەولێر, پارێزگای ھەولێر, هەرێمی کوردستان, 22004, العراق"
  },
  "airport, atlanta, united states": {
    "lat": 33.640712,
    "lon": -84.446227,
    "display_name": "Airport, 6000, North Terminal Parkway, Atlanta, Clayton County, Georgia, 30337, United States"
  },
  "airport, atlanta": {
    "lat": 33.640712,
    "lon": -84.446227,
    "display_name": "Airport, 6000, North Terminal Parkway, Atlanta, Clayton County, Georgia, 30337, United States"
  },
  "airport, atlanta, usa": {
    "lat": 33.640712,
    "lon": -84.446227,
    "display_name": "Airport, 6000, North Terminal Parkway, Atlanta, Clayton County, Georgia, 30337, United States"
  },
  "columbus, united states": {
    "lat": 39.96226,
    "lon": -83.000707,
    "display_name": "Columbus, Franklin County, Ohio, United States"
  },
  "hotel, bournemouth": {
    "lat": 50.724182,
    "lon": -1.855312,
    "display_name": "Langtry Manor Hotel, 26, Derby Road, Springbourne, Bournemouth, Bournemouth, Christchurch and Poole, England, BH1 3QB, United Kingdom"
  },
  "airport, mashhad, iran": {
    "lat": 36.231254,
    "lon": 59.65476,
    "display_name": "فرودگاه, منطقه ۷, شهر مشهد, بخش مرکزی شهرستان مشهد, شهرستان مشهد, استان خراسان رضوی, ایران"
  },
  "tehran, iran": {
    "lat": 35.689252,
    "lon": 51.3896,
    "display_name": "شهر تهران, بخش مرکزی شهرستان تهران, شهرستان تهران, استان تهران, ایران"
  },
  "hotel, mumbai, india": {
    "lat": 19.065006,
    "lon": 72.929413,
    "display_name": "hotel, road no12 plot no41 azad nagar shivaji nagar baiganwadi mumbai 400043, Road 12, Adarsh Nagar, Shivaji Nagar, M/E Ward, Mumbai Zone 5, Mumbai, Mumbai Suburban District, Maharashtra, 400043, India"
  },
  "airport, raleigh-durham": {
    "lat": 35.85716,
    "lon": -78.818269,
    "display_name": "Staybridge Suites Raleigh-Durham Apt-Morrisville, 1012, Airport Boulevard, Morrisville, Wake County, North Carolina, 27560, United States"
  },
  "airport, palm springs, united states": {
    "lat": 33.830339,
    "lon": -116.509645,
    "display_name": "Palm Springs International Airport, Clubhouse View Drive, Palm Springs, Riverside County, California, 92262, United States"
  },
  "airport": {
    "lat": 60.321816,
    "lon": 24.947361,
    "display_name": "Helsinki-Vantaan lentoasema, Ruskeasannantie, Ruskeasanta, Tikkurilan suuralue, Vantaa, Helsingin seutukunta, Uusimaa, Manner-Suomi, 01390, Suomi / Finland"
  },
  "priştine, kosovo": {
    "lat": 42.663877,
    "lon": 21.164085,
    "display_name": "Prishtinë, Komuna e Prishtinës / Opština Priština, Rajoni i Prishtinës / Prištinski okrug, Kosova / Kosovo"
  },
  "priştine, kosova": {
    "lat": 42.663877,
    "lon": 21.164085,
    "display_name": "Prishtinë, Komuna e Prishtinës / Opština Priština, Rajoni i Prishtinës / Prištinski okrug, Kosova / Kosovo"
  },
  "al kharj, saudi arabia": {
    "lat": 23.83044,
    "lon": 47.684013,
    "display_name": "محافظة الخرج, منطقة الرياض, السعودية"
  },
  "marayoor, india": {
    "lat": 10.275742,
    "lon": 77.162036,
    "display_name": "Marayoor, Devikulam, Idukki, Kerala, 685620, India"
  },
  "detroit, united states": {
    "lat": 42.331551,
    "lon": -83.04664,
    "display_name": "Detroit, Wayne County, Michigan, United States"
  },
  "kuwait, iran": {
    "lat": 29.376432,
    "lon": 47.985902,
    "display_name": "Iran Air, شارع خالد ابن الوليد, الشرق - قطعة 5, شرق, محافظة العاصمة, 15461, الكويت"
  },
  "airport, tehran, iran": {
    "lat": 35.423428,
    "lon": 51.198962,
    "display_name": "فرودگاه, آزادراه خلیج فارس, سلمان آباد, دهستان حسن آباد, بخش فشاپویه, شهرستان ری, استان تهران, 18391-33840, ایران"
  },
  "airport, kuwait, kuwait": {
    "lat": 29.307466,
    "lon": 47.962808,
    "display_name": "طريق المطار, اليرموك - قطعة 3, اليرموك, مدينة الكويت, خيطان, محافظة العاصمة, 72504, الكويت"
  },
  "airport, singapore, singapore": {
    "lat": 1.355134,
    "lon": 103.984888,
    "display_name": "Airport, 65, T1 Boulevard, Changi, East Region, Singapore, 819663, Singapore"
  },
  "airport, detroit": {
    "lat": 42.411244,
    "lon": -83.008531,
    "display_name": "Coleman A. Young Municipal Airport, Dobel Street, Airport Sub, Detroit, Wayne County, Michigan, 48234, United States"
  },
  "airport, amarillo, united states": {
    "lat": 35.220803,
    "lon": -101.709733,
    "display_name": "Rick Husband Amarillo International Airport, 10801, Airport Boulevard, Amarillo, Potter County, Texas, 79111, United States"
  },
  "airport, amarillo": {
    "lat": 35.220803,
    "lon": -101.709733,
    "display_name": "Rick Husband Amarillo International Airport, 10801, Airport Boulevard, Amarillo, Potter County, Texas, 79111, United States"
  },
  "airport, malda, india": {
    "lat": 25.0099,
    "lon": 88.125134,
    "display_name": "Malda Airport, A. B. A. Gani Khan Sarani, Malda, English Bazar, Maldah, West Bengal, 732101, India"
  },
  "airport, greenville": {
    "lat": 31.845708,
    "lon": -86.610529,
    "display_name": "Mac Crenshaw Memorial Airport, Airport Lane, Greenville, Butler County, Alabama, 36037, United States"
  },
  "bengal, india": {
    "lat": 22.996495,
    "lon": 87.685588,
    "display_name": "West Bengal, India"
  },
  "airport, jaffa, israel": {
    "lat": 32.104619,
    "lon": 34.788802,
    "display_name": "לוי אשכול 26, שדרות לוי אשכול, תל־אביב–יפו, שכונת למד, תל־אביב–יפו, נפת תל אביב, מחוז תל אביב, 6946032, ישראל"
  },
  "havalimanı, dubai, united arab emirates": {
    "lat": 25.251542,
    "lon": 55.366652,
    "display_name": "مطار دبي الدولي, طريق الخوانيج, ند شما, الراشدية, دبي, الإمارات العربية المتحدة"
  },
  "university, tehran, iran": {
    "lat": 35.703998,
    "lon": 51.399413,
    "display_name": "کانون زبان ایران, محمد شمس, دانشگاه تهران, ناحیه ۲, منطقه ۶ شهر تهران, شهرداری منطقه شش ناحیه سه, شهر تهران, بخش مرکزی شهرستان تهران, شهرستان تهران, استان تهران, 14168-64171, ایران"
  },
  "airports, iran": {
    "lat": 29.543695,
    "lon": 52.598163,
    "display_name": "شرکت فرودگاه ها و ناوبری هوایی شیراز, بزرگراه خلیج فارس, فرودگاه شیراز, منطقه ۲, شیراز, بخش مرکزی شیراز, شهرستان شیراز, استان فارس, 71597-39915, ایران"
  },
  "terminal, novorossiysk, russia": {
    "lat": 44.724151,
    "lon": 37.816471,
    "display_name": "Контейнерный терминал НУТЭП, Восточный район, Новороссийск, городской округ Новороссийск, Краснодарский край, Южный федеральный округ, 353900, Россия"
  },
  "airport, bengaluru, india": {
    "lat": 12.959944,
    "lon": 77.644138,
    "display_name": "Zoomcar India, 7th Floor,Tower-B, Diamond District, HAL Old Airport Road, Corporation Colony, Kodihalli, Bengaluru Central City Corporation, Bengaluru, Bangalore North, Bengaluru Urban, Karnataka, 560008, India"
  },
  "airport, roswell": {
    "lat": 33.408434,
    "lon": -104.545203,
    "display_name": "Old Roswell Airport Apron, West College Boulevard, Roswell, Chaves County, New Mexico, 88201, United States"
  },
  "airport, tampa, united states": {
    "lat": 27.979165,
    "lon": -82.534928,
    "display_name": "Tampa International Airport, 4100, George J. Bean Parkway, Paradise, Tampa, Hillsborough County, Florida, 33607, United States"
  },
  "airport, chisinau, moldova": {
    "lat": 46.929628,
    "lon": 28.93758,
    "display_name": "Aeroportul Internațional Chișinău „Eugen Doga”, Bulevardul Dacia, Codru, sectorul Botanica, Chișinău, Municipiul Chișinău, MD-2029, Moldova"
  },
  "taipei, taiwan": {
    "lat": 25.03752,
    "lon": 121.56368,
    "display_name": "臺北市, 臺灣"
  },
  "beirut, lebanon": {
    "lat": 33.889226,
    "lon": 35.502558,
    "display_name": "بيروت, البسطة التحتا, باشورة, محافظة بيروت, لبنان"
  },
  "hotel, belfast": {
    "lat": 54.594707,
    "lon": -5.932723,
    "display_name": "Maldron Hotel Belfast City, 20, Brunswick Street, Linen Quarter, Sandy Row, Belfast, Belfast City District, County Antrim, Northern Ireland / Tuaisceart Éireann, BT2 7GE, United Kingdom"
  },
  "airport, jujuy": {
    "lat": -24.393452,
    "lon": -65.093695,
    "display_name": "Aeropuerto Internacional Gobernador Horacio Guzmán, Avenida La Bandera, Virgen del Valle, Juan Manuel de Rosas, Perico, Municipio de Perico, Departamento El Carmen, Jujuy, Y4610, Argentina"
  }
}