{
  "dubai, united arab emirates": {
    "lat": 25.074282,
    "lon": 55.188539,
    "display_name": "دبي, الإمارات العربية المتحدة"
  },
  "airport, baghdad, iraq": {
    "lat": 33.234216,
    "lon": 44.239916,
    "display_name": "قيادة القوة الجوية, طريق المطار للمرور السريع, محلة 887, العامرية, ناحية المنصور, قضاء الکرخ, بغداد, بلدية المنصور, محافظة بغداد, 10012, العراق"
  },
  "airport, savannah, united states": {
    "lat": 32.135511,
    "lon": -81.207608,
    "display_name": "Savannah/Hilton Head International Airport, 400, Airways Avenue, Savannah, Chatham County, Georgia, 31408, United States"
  },
  "airport, kuwait": {
    "lat": 29.307466,
    "lon": 47.962808,
    "display_name": "طريق المطار, اليرموك - قطعة 3, اليرموك, مدينة الكويت, خيطان, محافظة العاصمة, 72504, الكويت"
  },
  "airport, vero beach, united states": {
    "lat": 27.657215,
    "lon": -80.41833,
    "display_name": "Vero Beach Municipal Airport, 3400, Cherokee Drive, Vero Beach, Indian River County, Florida, 32960, United States"
  },
  "victory base, baghdad, iraq": {
    "lat": 33.246052,
    "lon": 44.2162,
    "display_name": "Victory Base Complex, طريق المطار للمرور السريع, ناحية المنصور, قضاء الکرخ, بغداد, بلدية المنصور, محافظة بغداد, العراق"
  }
}