{
  "dubai, united arab emirates": {
    "lat": 25.074282,
    "lon": 55.188539,
    "display_name": "دبي, الإمارات العربية المتحدة"
  },
  "airport, savannah, united states": {
    "lat": 32.124238,
    "lon": -81.197706,
    "display_name": "Savannah/Hilton Head International Airport, Artley Road, Savannah, Chatham County, Georgia, 31408, United States"
  },
  "airport, boston, united states": {
    "lat": 42.374333,
    "lon": -71.030279,
    "display_name": "Airport, Transportation Way, The Flats, East Boston, Boston, Suffolk County, Massachusetts, 02128, United States"
  },
  "airport, kuwait city, kuwait": {
    "lat": 29.307466,
    "lon": 47.962808,
    "display_name": "طريق المطار, اليرموك - قطعة 3, اليرموك, مدينة الكويت, خيطان, محافظة العاصمة, 72504, الكويت"
  },
  "airport, ireland": {
    "lat": 53.426845,
    "lon": -6.243516,
    "display_name": "Bank of Ireland, Corballis Road South, Airport ED, Fingal, County Dublin, Leinster, K67 A0K7, Éire / Ireland"
  },
  "airport, vero beach, united states": {
    "lat": 27.657215,
    "lon": -80.41833,
    "display_name": "Vero Beach Municipal Airport, 3400, Cherokee Drive, Vero Beach, Indian River County, Florida, 32960, United States"
  },
  "dubai international airport, dubai, united arab emirates": {
    "lat": 25.251542,
    "lon": 55.366652,
    "display_name": "مطار دبي الدولي, شارع بيروت, محيصنة, دبي, الإمارات العربية المتحدة"
  },
  "baghdad, iraq": {
    "lat": 33.30617,
    "lon": 44.387221,
    "display_name": "بغداد, بلدية المنطقة الخضراء, محافظة بغداد, العراق"
  },
  "airport, lynden pindling, bahamas": {
    "lat": 25.049305,
    "lon": -77.4653,
    "display_name": "Bahamas Post Office, Lynden Pindling International Airport, New Providence, The Bahamas"
  },
  "plane": {
    "lat": 44.53127,
    "lon": 18.586291,
    "display_name": "Plane, Grad Tuzla, Tuzlanski kanton, Federacija Bosne i Hercegovine, 75212, Bosna i Hercegovina / Босна и Херцеговина"
  },
  "airport, united states": {
    "lat": 42.374333,
    "lon": -71.030279,
    "display_name": "Airport, Transportation Way, The Flats, East Boston, Boston, Suffolk County, Massachusetts, 02128, United States"
  },
  "bistro, frankfurt, germany": {
    "lat": 50.12138,
    "lon": 8.648312,
    "display_name": "Bistro Hong Kong, 26, Leipziger Straße, Einkaufsmeile Leipziger Straße, Bockenheim, Innenstadt 2, Frankfurt am Main, Hessen, 60487, Deutschland"
  },
  "al dhafra air base, abu dhabi, united arab emirates": {
    "lat": 24.238608,
    "lon": 54.552172,
    "display_name": "قاعدة الظفرة الجوية, شارع اللُّجَين, جرن يافور, جَرْن يَافُور, أبوظبي, أبو ظبي, الإمارات العربية المتحدة"
  },
  "detroit airport, detroit, united states": {
    "lat": 42.411244,
    "lon": -83.008531,
    "display_name": "Coleman A. Young Municipal Airport, East Outer Drive, Detroit, Wayne County, Michigan, 48213, United States"
  },
  "dubai airport, dubai, united arab emirates": {
    "lat": 25.251542,
    "lon": 55.366652,
    "display_name": "مطار دبي الدولي, شارع بيروت, محيصنة, دبي, الإمارات العربية المتحدة"
  },
  "florida airport, florida, united states": {
    "lat": 30.49375,
    "lon": -81.693038,
    "display_name": "Jacksonville International Airport, Cole Flyer Road, Jacksonville, Duval County, Florida, 32218, United States"
  },
  "erbil airport, erbil, iraq": {
    "lat": 36.240412,
    "lon": 43.946569,
    "display_name": "فڕۆکەخانەی نێودەوڵەتی هەولێر, شەقامی ڕەمزی نافع, شاری خەونەکان, ھەولێر, ناحیەی ناوەندی هەولێر, قەزای ناوەندی هەولێر, پارێزگای ھەولێر, هەرێمی کوردستان, 44001, العراق"
  },
  "otel, batman, turkey": {
    "lat": 37.880034,
    "lon": 41.124921,
    "display_name": "Grand White Otel, 7, Cumhuriyet Bulvarı, Eski Çarşı, Meydan Mahallesi, Batman Merkez, Batman, Güneydoğu Anadolu Bölgesi, 72050, Türkiye"
  },
  "airport area, egypt": {
    "lat": 5.616461,
    "lon": -0.177099,
    "display_name": "Embassy of Egypt, Senchi Road, Airport Residential Area, Dzorwulu, Accra, Ayawaso West Municipal District, Greater Accra Region, Ghana"
  },
  "hotel near lax, los angeles, united states": {
    "lat": 33.929825,
    "lon": -118.351074,
    "display_name": "Comfort Inn Cockatoo Near LAX Airport, 11500, Acacia Avenue, Hawthorne, Los Angeles County, California, 90250, United States"
  },
  "batman, turkey": {
    "lat": 37.78741,
    "lon": 41.257392,
    "display_name": "Batman, Güneydoğu Anadolu Bölgesi, Türkiye"
  },
  "airport, iran": {
    "lat": 38.120572,
    "lon": 46.243011,
    "display_name": "فرودگاه, شهر تبریز, بخش مرکزی شهرستان تبریز, شهرستان تبریز, استان آذربایجان شرقی, ایران"
  },
  "montreal, canada": {
    "lat": 45.503182,
    "lon": -73.569806,
    "display_name": "Montréal, Agglomération de Montréal, Montréal (région administrative), Québec, Canada"
  },
  "hotel, spain": {
    "lat": 40.407197,
    "lon": -3.699996,
    "display_name": "Hotel, 11, Calle de Valencia, Lavapiés, Embajadores, Centro, Madrid, Comunidad de Madrid, 28012, España"
  },
  "sydney airport, sydney, australia": {
    "lat": -33.949894,
    "lon": 151.181968,
    "display_name": "Sydney (Kingsford Smith) Airport, Foreshore Road, Botany, Eastern Suburbs, Sydney, Bayside Council, New South Wales, 2019, Australia"
  },
  "zaventem airport, zaventem, belgium": {
    "lat": 50.898336,
    "lon": 4.483259,
    "display_name": "Brussels Airport, Luchthaven Brussel Nationaal, Zaventem, Halle-Vilvoorde, Vlaams-Brabant, Vlaanderen, 1930, België / Belgique / Belgien"
  },
  "baghdad international airport, baghdad, iraq": {
    "lat": 33.263646,
    "lon": 44.22362,
    "display_name": "مطار بغداد الدولي, 893-2, حي بدر, ناحية المامون, قضاء الکرخ, بغداد, محافظة بغداد, 10012, العراق"
  },
  "airport, pristina, kosovo": {
    "lat": 42.600387,
    "lon": 21.025763,
    "display_name": "Aeroporti, Rruga e Pejës, Sllatinë e Vogël, Komuna e Fushë Kosovës / Opština Kosovo Polje, Rajoni i Prishtinës / Prištinski okrug, 12050, Kosova / Kosovo"
  },
  "brussels, belgium": {
    "lat": 50.846737,
    "lon": 4.352493,
    "display_name": "Bruxelles - Brussel, Brussel-Hoofdstad - Bruxelles-Capitale, Région de Bruxelles-Capitale - Brussels Hoofdstedelijk Gewest, België / Belgique / Belgien"
  },
  "airport, baghdad, iraq": {
    "lat": 33.234216,
    "lon": 44.239916,
    "display_name": "قيادة القوة الجوية, طريق المطار للمرور السريع, محلة 887, العامرية, ناحية المنصور, قضاء الکرخ, بغداد, بلدية المنصور, محافظة بغداد, 10012, العراق"
  },
  "hotel, ho chi minh city, vietnam": {
    "lat": 8.680084,
    "lon": 106.601957,
    "display_name": "Horizon Côn Đảo Hotel, Khu 5, Lương Thế Trân, Khu 5, Côn Sơn, Đặc khu Côn Đảo, Thành phố Hồ Chí Minh, 79000, Việt Nam"
  },
  "tel aviv, israel": {
    "lat": 32.0853,
    "lon": 34.781806,
    "display_name": "תל־אביב–יפו, נפת תל אביב, מחוז תל אביב, ישראל"
  },
  "laguardia airport, new york, united states": {
    "lat": 40.775714,
    "lon": -73.873364,
    "display_name": "LaGuardia Airport, Ditmars Boulevard, Queens, Queens County, New York, 11371, United States"
  },
  "ben gurion, israel": {
    "lat": 32.09092,
    "lon": 34.823395,
    "display_name": "בן גוריון, זאב ז'בוטינסקי, תל גיבורים, בני ברק, נפת תל אביב, מחוז תל אביב, 5121501, ישראל"
  }
}